rt_stop_data,rt_stop_id,parent_station,raw_stop_id,stop_desc,raw_stop_code,stop_code,raw_stop_lat,stop_lat,raw_stop_lon,stop_lon,wheelchair_boarding,stop_id,stop_disambiguation_key,stop_stable_id,stop_stable_key,raw_stop_name,stop_name,location_type,tts_stop_name,location_id,extra_value_by_key
,,,NODE__1,,,,48.97212,48.97212,4.35845,4.35845,0,NODE__1,,,,106EME R.I 1,106EME R.I 1,0,,,
,,,NODE__10,,,,49.0350191,49.0350191,4.20734785,4.20734785,0,NODE__10,,,,AIGNY,AIGNY,0,,,
,,,NODE__100,,,,48.9634459,48.9634459,4.37916972,4.37916972,0,NODE__100,,,,CROIX MILSON 2,CROIX MILSON 2,0,,,
,,,NODE__101,,,,48.9784682,48.9784682,4.34577092,4.34577092,0,NODE__101,,,,DATS 1,DATS 1,0,,,
,,,NODE__102,,,,48.978356,48.978356,4.345732,4.345732,0,NODE__102,,,,DATS 2,DATS 2,0,,,
,,,NODE__103,,,,48.7666597,48.7666597,4.29874254,4.29874254,0,NODE__103,,,,DOMMARTIN EGLISE,DOMMARTIN EGLISE,0,,,
,,,NODE__104,,,,48.959241,48.959241,4.370818,4.370818,0,NODE__104,,,,DOULCET 1,DOULCET 1,0,,,
,,,NODE__105,,,,48.959345,48.959345,4.370723,4.370723,0,NODE__105,,,,DOULCET 2,DOULCET 2,0,,,
,,,NODE__106,,,,48.95438,48.95438,4.334809,4.334809,0,NODE__106,,,,DR. FRAGNE 1,DR. FRAGNE 1,0,,,
,,,NODE__107,,,,48.954547,48.954547,4.334752,4.334752,0,NODE__107,,,,DR. FRAGNE 2,DR. FRAGNE 2,0,,,
,,,NODE__108,,,,48.963097,48.963097,4.354606,4.354606,0,NODE__108,,,,DR. MAILLOT,DR. MAILLOT,0,,,
,,,NODE__109,,,,48.9369301,48.9369301,4.3848507,4.3848507,0,NODE__109,,,,CAMPING 1,CAMPING 1,0,,,
,,,NODE__110,,,,48.9370805,48.9370805,4.3848135,4.3848135,0,NODE__110,,,,CAMPING 2,CAMPING 2,0,,,
,,,NODE__111,,,,48.934764,48.934764,4.385424,4.385424,0,NODE__111,,,,E. MANET 1,E. MANET 1,0,,,
,,,NODE__112,,,,48.934469,48.934469,4.38504,4.38504,0,NODE__112,,,,E. MANET 2,E. MANET 2,0,,,
,,,NODE__113,,,,48.992041,48.992041,4.310135,4.310135,0,NODE__113,,,,E. ROCHET,E. ROCHET,0,,,
,,,NODE__114,,,,48.9558278,48.9558278,4.32114444,4.32114444,0,NODE__114,,,,ECOLE DES COLLINES,ECOLE DES COLLINES,0,,,
,,,NODE__115,,,,48.9622694,48.9622694,4.31845556,4.31845556,0,NODE__115,,,,ECOLE DES TILLEULS,ECOLE DES TILLEULS,0,,,
,,,NODE__116,,,,48.961714,48.961714,4.358361,4.358361,0,NODE__116,,,,EDF - GDF 1,EDF - GDF 1,0,,,
,,,NODE__117,,,,48.961895,48.961895,4.358357,4.358357,0,NODE__117,,,,EDF - GDF 2,EDF - GDF 2,0,,,
,,,NODE__118,,,,48.9555741,48.9555741,4.34161668,4.34161668,0,NODE__118,,,,ENTREE TALON 1,ENTREE TALON 1,0,,,
,,,NODE__119,,,,48.9557121,48.9557121,4.34279623,4.34279623,0,NODE__119,,,,ENTREE TALON 2,ENTREE TALON 2,0,,,
,,,NODE__12,,,,48.941874,48.941874,4.376527,4.376527,0,NODE__12,,,,ALLENDE 1,ALLENDE 1,0,,,
,,,NODE__120,,,,48.988317,48.988317,4.318849,4.318849,0,NODE__120,,,,EPINETTES,EPINETTES,0,,,
,,,NODE__121,,,,48.972839,48.972839,4.373539,4.373539,0,NODE__121,,,,EREA 1,EREA 1,0,,,
,,,NODE__122,,,,48.972882,48.972882,4.373338,4.373338,0,NODE__122,,,,EREA 2,EREA 2,0,,,
,,,NODE__123,,,,48.972301,48.972301,4.348138,4.348138,0,NODE__123,,,,ESPACE ARON 1,ESPACE ARON 1,0,,,
,,,NODE__124,,,,48.9723245,48.9723245,4.34791242,4.34791242,0,NODE__124,,,,ESPACE ARON 2,ESPACE ARON 2,0,,,
,,,NODE__125,,,,48.963053,48.963053,4.31824,4.31824,0,NODE__125,,,,FAGNIERES MAIRIE,FAGNIERES MAIRIE,0,,,
,,,NODE__129,,,,48.9778105,48.9778105,4.3628484,4.3628484,0,NODE__129,,,,LYCÉE OZANAM 1,LYCÉE OZANAM 1,0,,,
,,,NODE__13,,,,48.941829,48.941829,4.376743,4.376743,0,NODE__13,,,,ALLENDE 2,ALLENDE 2,0,,,
,,,NODE__130,,,,48.9779023,48.9779023,4.3627311,4.3627311,0,NODE__130,,,,LYCÉE OZANAM 2,LYCÉE OZANAM 2,0,,,
,,,NODE__133,,,,48.964609,48.964609,4.315814,4.315814,0,NODE__133,,,,GAL DAUTELLE,GAL DAUTELLE,0,,,
,,,NODE__134,,,,48.945291,48.945291,4.370618,4.370618,0,NODE__134,,,,GAL GIRAUD 1,GAL GIRAUD 1,0,,,
,,,NODE__135,,,,48.945396,48.945396,4.370787,4.370787,0,NODE__135,,,,GAL GIRAUD 2,GAL GIRAUD 2,0,,,
,,,NODE__136,,,,48.965323,48.965323,4.316807,4.316807,0,NODE__136,,,,GAL LECLERC,GAL LECLERC,0,,,
,,,NODE__137,,,,48.975827,48.975827,4.344149,4.344149,0,NODE__137,,,,GARE CBR 1,GARE CBR 1,0,,,
,,,NODE__138,,,,48.975749,48.975749,4.344062,4.344062,0,NODE__138,,,,GARE CBR 2,GARE CBR 2,0,,,
,,,NODE__139,,,,48.953832,48.953832,4.349048,4.349048,0,NODE__139,,,,GARE SNCF 1,GARE SNCF 1,0,,,
,,,NODE__14,,,,48.93839,48.93839,4.38188,4.38188,0,NODE__14,,,,ALLIES 1,ALLIES 1,0,,,
,,,NODE__140,,,,48.953815,48.953815,4.348579,4.348579,0,NODE__140,,,,GARE SNCF 2,GARE SNCF 2,0,,,
,,,NODE__141,,,,48.968948,48.968948,4.362733,4.362733,0,NODE__141,,,,GENDARMERIE 1,GENDARMERIE 1,0,,,
,,,NODE__142,,,,48.969,48.969,4.362894,4.362894,0,NODE__142,,,,GENDARMERIE 2,GENDARMERIE 2,0,,,
,,,NODE__143,,,,48.990416,48.990416,4.310535,4.310535,0,NODE__143,,,,GRANDE RUE,GRANDE RUE,0,,,
,,,NODE__144,,,,48.9801763,48.9801763,4.34896223,4.34896223,0,NODE__144,,,,GRANDS CHAMPS 1,GRANDS CHAMPS 1,0,,,
,,,NODE__145,,,,48.980188,48.980188,4.349065,4.349065,0,NODE__145,,,,GRANDS CHAMPS 2,GRANDS CHAMPS 2,0,,,
,,,NODE__146,,,,48.949007,48.949007,4.345314,4.345314,0,NODE__146,,,,H. DUNANT 1,H. DUNANT 1,0,,,
,,,NODE__147,,,,48.949093,48.949093,4.345174,4.345174,0,NODE__147,,,,H. DUNANT 2,H. DUNANT 2,0,,,
,,,NODE__148,,,,48.7478629,48.7478629,4.16768151,4.16768151,0,NODE__148,,,,HAUSSIMONT 1,HAUSSIMONT 1,0,,,
,,,NODE__149,,,,48.7477806,48.7477806,4.16798056,4.16798056,0,NODE__149,,,,HAUSSIMONT 2,HAUSSIMONT 2,0,,,
,,,NODE__15,,,,48.938514,48.938514,4.382453,4.382453,0,NODE__15,,,,ALLIES 2,ALLIES 2,0,,,
,,,NODE__151,,,,48.953606,48.953606,4.319043,4.319043,0,NODE__151,,,,ILE D'YEU 1,ILE D'YEU 1,0,,,
,,,NODE__152,,,,48.954071,48.954071,4.319025,4.319025,0,NODE__152,,,,ILE D'YEU 2,ILE D'YEU 2,0,,,
,,,NODE__153,,,,48.961133,48.961133,4.352152,4.352152,0,NODE__153,,,,ISLE AUX BOIS,ISLE AUX BOIS,0,,,
,,,NODE__154,,,,49.0660259,49.0660259,4.20741531,4.20741531,0,NODE__154,,,,ISSE,ISSE,0,,,
,,,NODE__157,,,,48.941376,48.941376,4.372346,4.372346,0,NODE__157,,,,J.F. KENNEDY 1,J.F. KENNEDY 1,0,,,
,,,NODE__158,,,,48.941667,48.941667,4.371674,4.371674,0,NODE__158,,,,J.F. KENNEDY 2,J.F. KENNEDY 2,0,,,
,,,NODE__159,,,,49.0100751,49.0100751,4.17865299,4.17865299,0,NODE__159,,,,JALONS CHATEAU D'EAU,JALONS CHATEAU D'EAU,0,,,
,,,NODE__16,,,,48.974581,48.974581,4.356077,4.356077,0,NODE__16,,,,AMPERE 1,AMPERE 1,0,,,
,,,NODE__160,,,,49.0094824,49.0094824,4.18515018,4.18515018,0,NODE__160,,,,JALONS PHARMACIE,JALONS PHARMACIE,0,,,
,,,NODE__164,,,,48.9465538,48.9465538,4.38873806,4.38873806,0,NODE__164,,,,JEAN MOULIN 1,JEAN MOULIN 1,0,,,
,,,NODE__165,,,,48.947063,48.947063,4.388346,4.388346,0,NODE__165,,,,JEAN MOULIN 2,JEAN MOULIN 2,0,,,
,,,NODE__166,,,,48.949908,48.949908,4.348688,4.348688,0,NODE__166,,,,JEANNE D'ARC 1,JEANNE D'ARC 1,0,,,
,,,NODE__167,,,,48.950198,48.950198,4.348728,4.348728,0,NODE__167,,,,JEANNE D'ARC 2,JEANNE D'ARC 2,0,,,
,,,NODE__168,,,,49.0153992,49.0153992,4.27175796,4.27175796,0,NODE__168,,,,JUVIGNY ABRI,JUVIGNY ABRI,0,,,
,,,NODE__169,,,,49.0133202,49.0133202,4.26219586,4.26219586,0,NODE__169,,,,JUVIGNY LAC,JUVIGNY LAC,0,,,
,,,NODE__17,,,,48.973812,48.973812,4.354796,4.354796,0,NODE__17,,,,AMPERE 2,AMPERE 2,0,,,
,,,NODE__170,,,,49.0197048,49.0197048,4.26661485,4.26661485,0,NODE__170,,,,JUVIGNY LOUVOIS,JUVIGNY LOUVOIS,0,,,
,,,NODE__171,,,,49.0211524,49.0211524,4.25867869,4.25867869,0,NODE__171,,,,JUVIGNY PRESSOIR,JUVIGNY PRESSOIR,0,,,
,,,NODE__172,,,,48.9648374,48.9648374,4.38057731,4.38057731,0,NODE__172,,,,L. BEETHOVEN 1,L. BEETHOVEN 1,0,,,
,,,NODE__173,,,,48.964807,48.964807,4.380534,4.380534,0,NODE__173,,,,L. BEETHOVEN 2,L. BEETHOVEN 2,0,,,
,,,NODE__174,,,,48.959836,48.959836,4.365431,4.365431,0,NODE__174,,,,L. BOURGEOIS 1,L. BOURGEOIS 1,0,,,
,,,NODE__175,,,,48.960273,48.960273,4.365573,4.365573,0,NODE__175,,,,L. BOURGEOIS 2,L. BOURGEOIS 2,0,,,
,,,NODE__176,,,,48.947323,48.947323,4.369205,4.369205,0,NODE__176,,,,L. LAFOREST 1,L. LAFOREST 1,0,,,
,,,NODE__177,,,,48.947386,48.947386,4.369303,4.369303,0,NODE__177,,,,L. LAFOREST 2,L. LAFOREST 2,0,,,
,,,NODE__178,,,,48.9788037,48.9788037,4.35259296,4.35259296,0,NODE__178,,,,L'ILET 1,L'ILET 1,0,,,
,,,NODE__179,,,,48.9788251,48.9788251,4.35279224,4.35279224,0,NODE__179,,,,L'ILET 2,L'ILET 2,0,,,
,,,NODE__18,,,,48.9538735,48.9538735,4.3297931,4.3297931,0,NODE__18,,,,ARGENSOLS 1,ARGENSOLS 1,0,,,
,,,NODE__182,,,,49.0312017,49.0312017,4.31669354,4.31669354,0,NODE__182,,,,LA VEUVE,LA VEUVE,0,,,
,,,NODE__184,,,,48.943049,48.943049,4.37777,4.37777,0,NODE__184,,,,LAVALETTE 1,LAVALETTE 1,0,,,
,,,NODE__185,,,,48.943721,48.943721,4.377185,4.377185,0,NODE__185,,,,LAVALETTE 2,LAVALETTE 2,0,,,
,,,NODE__186,,,,48.9709,48.9709,4.358829,4.358829,0,NODE__186,,,,LAVOISIER 1,LAVOISIER 1,0,,,
,,,NODE__187,,,,48.971033,48.971033,4.358973,4.358973,0,NODE__187,,,,LAVOISIER 2,LAVOISIER 2,0,,,
,,,NODE__188,,,,48.958748,48.958748,4.383862,4.383862,0,NODE__188,,,,LE CORBUSIER 1,LE CORBUSIER 1,0,,,
,,,NODE__189,,,,48.958868,48.958868,4.384112,4.384112,0,NODE__189,,,,LE CORBUSIER 2,LE CORBUSIER 2,0,,,
,,,NODE__19,,,,48.9539242,48.9539242,4.3296846,4.3296846,0,NODE__19,,,,ARGENSOLS 2,ARGENSOLS 2,0,,,
,,,NODE__190,,,,48.7756889,48.7756889,4.11443333,4.11443333,0,NODE__190,,,,LENHARREE 1,LENHARREE 1,0,,,
,,,NODE__191,,,,48.7757083,48.7757083,4.11424444,4.11424444,0,NODE__191,,,,LENHARREE 2,LENHARREE 2,0,,,
,,,NODE__192,,,,49.06509,49.06509,4.29358,4.29358,0,NODE__192,,,,LES GRANDES-LOGES,LES GRANDES-LOGES,0,,,
,,,NODE__193,,,,48.920113,48.920113,4.404707,4.404707,0,NODE__193,,,,LES JARDINS 1,LES JARDINS 1,0,,,
,,,NODE__194,,,,48.9207943,48.9207943,4.40386487,4.40386487,0,NODE__194,,,,LES JARDINS 2,LES JARDINS 2,0,,,
,,,NODE__195,,,,48.9938747,48.9938747,4.33470394,4.33470394,0,NODE__195,,,,LES MADINES,LES MADINES,0,,,
,,,NODE__196,,,,48.7861108,48.7861108,4.2783887,4.2783887,0,NODE__196,,,,LETTREE 1,LETTREE 1,0,,,
,,,NODE__197,,,,48.7856667,48.7856667,4.27828611,4.27828611,0,NODE__197,,,,LETTREE 2,LETTREE 2,0,,,
,,,NODE__198,,,,48.937376,48.937376,4.379682,4.379682,0,NODE__198,,,,LIBERATION NORD 1,LIBERATION NORD 1,0,,,
,,,NODE__199,,,,48.937173,48.937173,4.379612,4.379612,0,NODE__199,,,,LIBERATION NORD 2,LIBERATION NORD 2,0,,,
,,,NODE__2,,,,48.97251,48.97251,4.35903,4.35903,0,NODE__2,,,,106EME R.I 2,106EME R.I 2,0,,,
,,,NODE__20,,,,49.0042371,49.0042371,4.20292456,4.20292456,0,NODE__20,,,,AULNAY 1,AULNAY 1,0,,,
,,,NODE__200,,,,49.1149556,49.1149556,4.3083,4.3083,0,NODE__200,,,,LIVRY LOUVERCY - EGLISE,LIVRY LOUVERCY - EGLISE,0,,,
,,,NODE__201,,,,48.957471,48.957471,4.380564,4.380564,0,NODE__201,,,,LORRAINE 1,LORRAINE 1,0,,,
,,,NODE__202,,,,48.957576,48.957576,4.380385,4.380385,0,NODE__202,,,,LORRAINE 2,LORRAINE 2,0,,,
,,,NODE__203,,,,48.9590614,48.9590614,4.36146948,4.36146948,0,NODE__203,,,,LYCEE BAYEN 1,LYCEE BAYEN 1,0,,,
,,,NODE__204,,,,48.9591585,48.9591585,4.36149533,4.36149533,0,NODE__204,,,,LYCEE BAYEN 2,LYCEE BAYEN 2,0,,,
,,,NODE__205,,,,48.9737472,48.9737472,4.3589727,4.3589727,0,NODE__205,,,,GRETA 1,GRETA 1,0,,,
,,,NODE__206,,,,48.9739018,48.9739018,4.3589632,4.3589632,0,NODE__206,,,,GRETA 2,GRETA 2,0,,,
,,,NODE__207,,,,48.953924,48.953924,4.339976,4.339976,0,NODE__207,,,,LYCEE TALON 1,LYCEE TALON 1,0,,,
,,,NODE__208,,,,48.95439,48.95439,4.338172,4.338172,0,NODE__208,,,,LYCEE TALON 2,LYCEE TALON 2,0,,,
,,,NODE__209,,,,48.947459,48.947459,4.340992,4.340992,0,NODE__209,,,,M. COLIN 1,M. COLIN 1,0,,,
,,,NODE__21,,,,49.0045194,49.0045194,4.20251111,4.20251111,0,NODE__21,,,,AULNAY 2,AULNAY 2,0,,,
,,,NODE__210,,,,48.948115,48.948115,4.341644,4.341644,0,NODE__210,,,,M. COLIN 2,M. COLIN 2,0,,,
,,,NODE__211,,,,48.973671,48.973671,4.364887,4.364887,0,NODE__211,,,,M. GENEVOIX 1,M. GENEVOIX 1,0,,,
,,,NODE__212,,,,48.973534,48.973534,4.364917,4.364917,0,NODE__212,,,,M. GENEVOIX 2,M. GENEVOIX 2,0,,,
,,,NODE__213,,,,48.95711,48.95711,4.360207,4.360207,0,NODE__213,,,,MARNE 1,MARNE 1,0,,,
,,,NODE__214,,,,48.95717,48.95717,4.360043,4.360043,0,NODE__214,,,,MARNE 2,MARNE 2,0,,,
,,,NODE__217,,,,48.9935071,48.9935071,4.23793899,4.23793899,0,NODE__217,,,,MATOUGUES RD3 1,MATOUGUES RD3 1,0,,,
,,,NODE__218,,,,48.9936556,48.9936556,4.23788611,4.23788611,0,NODE__218,,,,MATOUGUES RD3 2,MATOUGUES RD3 2,0,,,
,,,NODE__219,,,,48.9445634,48.9445634,4.37436535,4.37436535,0,NODE__219,,,,MELPOMENE 1,MELPOMENE 1,0,,,
,,,NODE__220,,,,48.943793,48.943793,4.374139,4.374139,0,NODE__220,,,,MELPOMENE 2,MELPOMENE 2,0,,,
,,,NODE__221,,,,48.941381,48.941381,4.400841,4.400841,0,NODE__221,,,,MENARD 1,MENARD 1,0,,,
,,,NODE__222,,,,48.941332,48.941332,4.401023,4.401023,0,NODE__222,,,,MENARD 2,MENARD 2,0,,,
,,,NODE__226,,,,48.977025,48.977025,4.378996,4.378996,0,NODE__226,,,,MONT BERNARD,MONT BERNARD,0,,,
,,,NODE__227,,,,48.974669,48.974669,4.374944,4.374944,0,NODE__227,,,,MONT DE SUIPPES,MONT DE SUIPPES,0,,,
,,,NODE__228,,,,48.9438469,48.9438469,4.399009,4.399009,0,NODE__228,,,,MONT MICHAUD 1,MONT MICHAUD 1,0,,,
,,,NODE__229,,,,48.9434276,48.9434276,4.3995159,4.3995159,0,NODE__229,,,,MONT MICHAUD 2,MONT MICHAUD 2,0,,,
,,,NODE__23,,,,48.951381,48.951381,4.348052,4.348052,0,NODE__23,,,,AVENUE DE PARIS 1,AVENUE DE PARIS 1,0,,,
,,,NODE__230,,,,48.943463,48.943463,4.34208551,4.34208551,0,NODE__230,,,,MONT ST MICHEL 1,MONT ST MICHEL 1,0,,,
,,,NODE__231,,,,48.943544,48.943544,4.341641,4.341641,0,NODE__231,,,,MONT ST MICHEL 2,MONT ST MICHEL 2,0,,,
,,,NODE__232,,,,48.907205,48.907205,4.43021,4.43021,0,NODE__232,,,,MONTCEZ-LONGEVAS,MONTCEZ-LONGEVAS,0,,,
,,,NODE__233,,,,48.7123833,48.7123833,4.13879722,4.13879722,0,NODE__233,,,,MONTEPREUX,MONTEPREUX,0,,,
,,,NODE__234,,,,48.9764592,48.9764592,4.3598111,4.3598111,0,NODE__234,,,,LYCÉE OEHMICHEN,LYCÉE OEHMICHEN,0,,,
,,,NODE__235,,,,49.1326056,49.1326056,4.363975,4.363975,0,NODE__235,,,,MOURMELON LE GRAND - CENTRE NAPOLEON,MOURMELON LE GRAND - CENTRE NAPOLEON,0,,,
,,,NODE__236,,,,49.139248,49.139248,4.364967,4.364967,0,NODE__236,,,,MOURMELON LE GRAND - LEON BOURGEOIS,MOURMELON LE GRAND - LEON BOURGEOIS,0,,,
,,,NODE__237,,,,49.1314861,49.1314861,4.31808056,4.31808056,0,NODE__237,,,,MOURMELON LE PETIT GARE,MOURMELON LE PETIT GARE,0,,,
,,,NODE__238,,,,48.9532014,48.9532014,4.33656808,4.33656808,0,NODE__238,,,,N. APPERT 1,N. APPERT 1,0,,,
,,,NODE__239,,,,48.9529519,48.9529519,4.33654302,4.33654302,0,NODE__239,,,,N. APPERT 2,N. APPERT 2,0,,,
,,,NODE__24,,,,48.951482,48.951482,4.347395,4.347395,0,NODE__24,,,,AVENUE DE PARIS 2,AVENUE DE PARIS 2,0,,,
,,,NODE__240,,,,48.944852,48.944852,4.338563,4.338563,0,NODE__240,,,,NORMANDIE 1,NORMANDIE 1,0,,,
,,,NODE__241,,,,48.944899,48.944899,4.338629,4.338629,0,NODE__241,,,,NORMANDIE 2,NORMANDIE 2,0,,,
,,,NODE__242,,,,48.956032,48.956032,4.316556,4.316556,0,NODE__242,,,,NOUE DU MOULIN 1,NOUE DU MOULIN 1,0,,,
,,,NODE__243,,,,48.95607,48.95607,4.316833,4.316833,0,NODE__243,,,,NOUE DU MOULIN 2,NOUE DU MOULIN 2,0,,,
,,,NODE__244,,,,48.9532798,48.9532798,4.34637243,4.34637243,0,NODE__244,,,,ORLEANS 1,ORLEANS 1,0,,,
,,,NODE__245,,,,48.953378,48.953378,4.346195,4.346195,0,NODE__245,,,,ORLEANS 2,ORLEANS 2,0,,,
,,,NODE__246,,,,48.955799,48.955799,4.319858,4.319858,0,NODE__246,,,,OUESSANT 1,OUESSANT 1,0,,,
,,,NODE__247,,,,48.955837,48.955837,4.319968,4.319968,0,NODE__247,,,,OUESSANT 2,OUESSANT 2,0,,,
,,,NODE__248,,,,48.943067,48.943067,4.380119,4.380119,0,NODE__248,,,,P. DAC 1,P. DAC 1,0,,,
,,,NODE__249,,,,48.94316,48.94316,4.38031,4.38031,0,NODE__249,,,,P. DAC 2,P. DAC 2,0,,,
,,,NODE__25,,,,48.949705,48.949705,4.336284,4.336284,0,NODE__25,,,,B. REMY 1,B. REMY 1,0,,,
,,,NODE__250,,,,48.938749,48.938749,4.391557,4.391557,0,NODE__250,,,,P. VERLAINE 1,P. VERLAINE 1,0,,,
,,,NODE__251,,,,48.938802,48.938802,4.391693,4.391693,0,NODE__251,,,,P. VERLAINE 2,P. VERLAINE 2,0,,,
,,,NODE__252,,,,48.988315,48.988315,4.340067,4.340067,0,NODE__252,,,,PARC INDUSTRIEL RECY / ST MARTIN,PARC INDUSTRIEL RECY / ST MARTIN,0,,,
,,,NODE__253,,,,48.95499,48.95499,4.348437,4.348437,0,NODE__253,,,,PARVIS GARE,PARVIS GARE,0,,,
,,,NODE__254,,,,48.9378448,48.9378448,4.35029049,4.35029049,0,NODE__254,,,,PASTEUR,PASTEUR,0,,,
,,,NODE__255,,,,48.939247,48.939247,4.400191,4.400191,0,NODE__255,,,,PATINOIRE,PATINOIRE,0,,,
,,,NODE__256,,,,48.9452261,48.9452261,4.379545,4.379545,0,NODE__256,,,,CAPITOLE EN CHAMPAGNE 1,CAPITOLE EN CHAMPAGNE 1,0,,,
,,,NODE__257,,,,48.9448317,48.9448317,4.3791585,4.3791585,0,NODE__257,,,,CAPITOLE EN CHAMPAGNE 2,CAPITOLE EN CHAMPAGNE 2,0,,,
,,,NODE__258,,,,48.962746,48.962746,4.319489,4.319489,0,NODE__258,,,,PETITE CHAUSSEE,PETITE CHAUSSEE,0,,,
,,,NODE__259,,,,48.9634,48.9634,4.366897,4.366897,0,NODE__259,,,,PLACE DE VERDUN 1,PLACE DE VERDUN 1,0,,,
,,,NODE__26,,,,48.949611,48.949611,4.336642,4.336642,0,NODE__26,,,,B. REMY 2,B. REMY 2,0,,,
,,,NODE__260,,,,48.962706,48.962706,4.36607,4.36607,0,NODE__260,,,,PLACE DE VERDUN 2,PLACE DE VERDUN 2,0,,,
,,,NODE__261,,,,48.918719,48.918719,4.407699,4.407699,0,NODE__261,,,,PLACE DU COMMERCE 1,PLACE DU COMMERCE 1,0,,,
,,,NODE__262,,,,48.9179443,48.9179443,4.40886662,4.40886662,0,NODE__262,,,,PLACE DU COMMERCE 2,PLACE DU COMMERCE 2,0,,,
,,,NODE__263,,,,48.9540833,48.9540833,4.31481111,4.31481111,0,NODE__263,,,,PLACE E. DEHEPPE,PLACE E. DEHEPPE,0,,,
,,,NODE__264,,,,48.9472917,48.9472917,4.14568889,4.14568889,0,NODE__264,,,,POCANCY,POCANCY,0,,,
,,,NODE__265,,,,48.953439,48.953439,4.385359,4.385359,0,NODE__265,,,,POIX 1,POIX 1,0,,,
,,,NODE__266,,,,48.953331,48.953331,4.385512,4.385512,0,NODE__266,,,,POIX 2,POIX 2,0,,,
,,,NODE__267,,,,48.9496866,48.9496866,4.3767989,4.3767989,0,NODE__267,,,,PONT ALIPS 1,PONT ALIPS 1,0,,,
,,,NODE__268,,,,48.949746,48.949746,4.376849,4.376849,0,NODE__268,,,,PONT ALIPS 2,PONT ALIPS 2,0,,,
,,,NODE__269,,,,48.9443303,48.9443303,4.3860279,4.3860279,0,NODE__269,,,,PRÉSIDENT ROOSEVELT 1,PRÉSIDENT ROOSEVELT 1,0,,,
,,,NODE__27,,,,48.947516,48.947516,4.372932,4.372932,0,NODE__27,,,,BAGATELLE 1,BAGATELLE 1,0,,,
,,,NODE__270,,,,48.9445072,48.9445072,4.3858207,4.3858207,0,NODE__270,,,,PRÉSIDENT ROOSEVELT 2,PRÉSIDENT ROOSEVELT 2,0,,,
,,,NODE__271,,,,48.950476,48.950476,4.369512,4.369512,0,NODE__271,,,,PR. LANGEVIN 1,PR. LANGEVIN 1,0,,,
,,,NODE__272,,,,48.950417,48.950417,4.369788,4.369788,0,NODE__272,,,,PR. LANGEVIN 2,PR. LANGEVIN 2,0,,,
,,,NODE__273,,,,48.952291,48.952291,4.367544,4.367544,0,NODE__273,,,,PREFECTURE 1,PREFECTURE 1,0,,,
,,,NODE__274,,,,48.952585,48.952585,4.367409,4.367409,0,NODE__274,,,,PREFECTURE 2,PREFECTURE 2,0,,,
,,,NODE__275,,,,48.969500924930095,48.969500924930095,4.353336397990908,4.353336397990908,0,NODE__275,,,,R. POINCARE 1,R. POINCARE 1,0,,,
,,,NODE__276,,,,48.96947975909831,48.96947975909831,4.353101218586512,4.353101218586512,0,NODE__276,,,,R. POINCARE 2,R. POINCARE 2,0,,,
,,,NODE__277,,,,48.965877,48.965877,4.365111,4.365111,0,NODE__277,,,,R.P.A SARRAIL 1,R.P.A SARRAIL 1,0,,,
,,,NODE__278,,,,48.966801,48.966801,4.364609,4.364609,0,NODE__278,,,,R.P.A SARRAIL 2,R.P.A SARRAIL 2,0,,,
,,,NODE__279,,,,48.987529,48.987529,4.313384,4.313384,0,NODE__279,,,,RECY MAIRIE,RECY MAIRIE,0,,,
,,,NODE__28,,,,48.947363,48.947363,4.372881,4.372881,0,NODE__28,,,,BAGATELLE 2,BAGATELLE 2,0,,,
,,,NODE__280,,,,48.952434,48.952434,4.375459,4.375459,0,NODE__280,,,,RESIDENCE BICHAT 1,RESIDENCE BICHAT 1,0,,,
,,,NODE__281,,,,48.952467,48.952467,4.375521,4.375521,0,NODE__281,,,,RESIDENCE BICHAT 2,RESIDENCE BICHAT 2,0,,,
,,,NODE__282,,,,48.945233,48.945233,4.37962,4.37962,0,NODE__282,,,,ROOSEVELT 1,ROOSEVELT 1,0,,,
,,,NODE__283,,,,48.9448416,48.9448416,4.37915841,4.37915841,0,NODE__283,,,,ROOSEVELT 2,ROOSEVELT 2,0,,,
,,,NODE__284,,,,48.941961,48.941961,4.346475,4.346475,0,NODE__284,,,,ROUTE DE BLACY 1,ROUTE DE BLACY 1,0,,,
,,,NODE__285,,,,48.94191,48.94191,4.346302,4.346302,0,NODE__285,,,,ROUTE DE BLACY 2,ROUTE DE BLACY 2,0,,,
,,,NODE__288,,,,48.953228,48.953228,4.324271,4.324271,0,NODE__288,,,,ROUTE DE MONTMIRAIL 1,ROUTE DE MONTMIRAIL 1,0,,,
,,,NODE__289,,,,48.953175,48.953175,4.322576,4.322576,0,NODE__289,,,,ROUTE DE MONTMIRAIL 2,ROUTE DE MONTMIRAIL 2,0,,,
,,,NODE__292,,,,48.960613,48.960613,4.377072,4.377072,0,NODE__292,,,,SABBATHIER 1,SABBATHIER 1,0,,,
,,,NODE__293,,,,48.960841,48.960841,4.377316,4.377316,0,NODE__293,,,,SABBATHIER 2,SABBATHIER 2,0,,,
,,,NODE__294,,,,48.954549,48.954549,4.366039,4.366039,0,NODE__294,,,,SAINT-ELOI 1,SAINT-ELOI 1,0,,,
,,,NODE__295,,,,48.954465,48.954465,4.366232,4.366232,0,NODE__295,,,,SAINT-ELOI 2,SAINT-ELOI 2,0,,,
,,,NODE__296,,,,49.0245124,49.0245124,4.42004009,4.42004009,0,NODE__296,,,,SAINT-ETIENNE-AU-TEMPLE,SAINT-ETIENNE-AU-TEMPLE,0,,,
,,,NODE__297,,,,48.97102,48.97102,4.30772,4.30772,0,NODE__297,,,,SAINT-GIBRIEN,SAINT-GIBRIEN,0,,,
,,,NODE__298,,,,48.9493858,48.9493858,4.24850439,4.24850439,0,NODE__298,,,,SAINT-PIERRE 1,SAINT-PIERRE 1,0,,,
,,,NODE__299,,,,48.9468018,48.9468018,4.24431262,4.24431262,0,NODE__299,,,,SAINT-PIERRE 2,SAINT-PIERRE 2,0,,,
,,,NODE__3,,,,48.971862,48.971862,4.362491,4.362491,0,NODE__3,,,,A. GODEAU 1,A. GODEAU 1,0,,,
,,,NODE__304,,,,48.9827593,48.9827593,4.34660358,4.34660358,0,NODE__304,,,,SCAPEST 1,SCAPEST 1,0,,,
,,,NODE__305,,,,48.982073,48.982073,4.346473,4.346473,0,NODE__305,,,,SCAPEST 2,SCAPEST 2,0,,,
,,,NODE__306,,,,48.9679162,48.9679162,4.3575921,4.3575921,0,NODE__306,,,,SCHMIT 1,SCHMIT 1,0,,,
,,,NODE__307,,,,48.96789,48.96789,4.35779836,4.35779836,0,NODE__307,,,,SCHMIT 2,SCHMIT 2,0,,,
,,,NODE__308,,,,48.9555258,48.9555258,4.37453258,4.37453258,0,NODE__308,,,,SECURITE SOCIALE 1,SECURITE SOCIALE 1,0,,,
,,,NODE__309,,,,48.955592,48.955592,4.374359,4.374359,0,NODE__309,,,,SECURITE SOCIALE 2,SECURITE SOCIALE 2,0,,,
,,,NODE__31,,,,48.967046,48.967046,4.314086,4.314086,0,NODE__31,,,,BEAUX-REGARDS 1,BEAUX-REGARDS 1,0,,,
,,,NODE__310,,,,48.94705,48.94705,4.339658,4.339658,0,NODE__310,,,,SEMARD 1,SEMARD 1,0,,,
,,,NODE__311,,,,48.947052,48.947052,4.339866,4.339866,0,NODE__311,,,,SEMARD 2,SEMARD 2,0,,,
,,,NODE__312,,,,48.949204,48.949204,4.385678,4.385678,0,NODE__312,,,,SIMON 1,SIMON 1,0,,,
,,,NODE__313,,,,48.949287,48.949287,4.385843,4.385843,0,NODE__313,,,,SIMON 2,SIMON 2,0,,,
,,,NODE__314,,,,48.737498,48.737498,4.1976327,4.1976327,0,NODE__314,,,,SOMMESOUS 1,SOMMESOUS 1,0,,,
,,,NODE__315,,,,48.7378278,48.7378278,4.19771944,4.19771944,0,NODE__315,,,,SOMMESOUS 2,SOMMESOUS 2,0,,,
,,,NODE__316,,,,48.7374444,48.7374444,4.19753333,4.19753333,0,NODE__316,,,,SOMMESOUS PRIMAIRE,SOMMESOUS PRIMAIRE,0,,,
,,,NODE__317,,,,48.7390889,48.7390889,4.31397778,4.31397778,0,NODE__317,,,,SOUDE MAIRIE,SOUDE MAIRIE,0,,,
,,,NODE__318,,,,48.7479222,48.7479222,4.30848056,4.30848056,0,NODE__318,,,,SOUDE NOTRE DAME,SOUDE NOTRE DAME,0,,,
,,,NODE__32,,,,48.966977,48.966977,4.314605,4.314605,0,NODE__32,,,,BEAUX-REGARDS 2,BEAUX-REGARDS 2,0,,,
,,,NODE__320,,,,48.8379578,48.8379578,4.20064679,4.20064679,0,NODE__320,,,,SOUDRON ECOLE,SOUDRON ECOLE,0,,,
,,,NODE__322,,,,48.8470361,48.8470361,4.19827778,4.19827778,0,NODE__322,,,,SOUDRON RUE PRINCIPALE 1,SOUDRON RUE PRINCIPALE 1,0,,,
,,,NODE__323,,,,48.8467056,48.8467056,4.19830278,4.19830278,0,NODE__323,,,,SOUDRON RUE PRINCIPALE 2,SOUDRON RUE PRINCIPALE 2,0,,,
,,,NODE__324,,,,48.955734,48.955734,4.377064,4.377064,0,NODE__324,,,,ST JEAN 1,ST JEAN 1,0,,,
,,,NODE__325,,,,48.95586,48.95586,4.376932,4.376932,0,NODE__325,,,,ST JEAN 2,ST JEAN 2,0,,,
,,,NODE__326,,,,48.935953,48.935953,4.386139,4.386139,0,NODE__326,,,,ST THIEBAULT 1,ST THIEBAULT 1,0,,,
,,,NODE__327,,,,48.936019,48.936019,4.386204,4.386204,0,NODE__327,,,,ST THIEBAULT 2,ST THIEBAULT 2,0,,,
,,,NODE__328,,,,48.951842,48.951842,4.333653,4.333653,0,NODE__328,,,,STALINGRAD 1,STALINGRAD 1,0,,,
,,,NODE__329,,,,48.951757,48.951757,4.333986,4.333986,0,NODE__329,,,,STALINGRAD 2,STALINGRAD 2,0,,,
,,,NODE__330,,,,48.964616,48.964616,4.355379,4.355379,0,NODE__330,,,,ST-ANTOINE 1,ST-ANTOINE 1,0,,,
,,,NODE__331,,,,48.964578,48.964578,4.355562,4.355562,0,NODE__331,,,,ST-ANTOINE 2,ST-ANTOINE 2,0,,,
,,,NODE__332,,,,48.962952,48.962952,4.38065,4.38065,0,NODE__332,,,,STE-MENEHOULD 1,STE-MENEHOULD 1,0,,,
,,,NODE__333,,,,48.962826,48.962826,4.38093,4.38093,0,NODE__333,,,,STE-MENEHOULD 2,STE-MENEHOULD 2,0,,,
,,,NODE__334,,,,48.953573,48.953573,4.382493,4.382493,0,NODE__334,,,,ST-MEMMIE MAIRIE 1,ST-MEMMIE MAIRIE 1,0,,,
,,,NODE__335,,,,48.953509,48.953509,4.382948,4.382948,0,NODE__335,,,,ST-MEMMIE MAIRIE 2,ST-MEMMIE MAIRIE 2,0,,,
,,,NODE__336,,,,48.955928,48.955928,4.388977,4.388977,0,NODE__336,,,,ST-MEMMIE VAUBAN 1,ST-MEMMIE VAUBAN 1,0,,,
,,,NODE__337,,,,48.955932,48.955932,4.389182,4.389182,0,NODE__337,,,,ST-MEMMIE VAUBAN 2,ST-MEMMIE VAUBAN 2,0,,,
,,,NODE__338,,,,48.9481171,48.9481171,4.37897377,4.37897377,0,NODE__338,,,,T. DE BANVILLE 1,T. DE BANVILLE 1,0,,,
,,,NODE__339,,,,48.947967,48.947967,4.378409,4.378409,0,NODE__339,,,,T. DE BANVILLE 2,T. DE BANVILLE 2,0,,,
,,,NODE__34,,,,48.971266,48.971266,4.350158,4.350158,0,NODE__34,,,,BERTOT 1,BERTOT 1,0,,,
,,,NODE__340,,,,48.940083,48.940083,4.389668,4.389668,0,NODE__340,,,,T. GAUTIER 1,T. GAUTIER 1,0,,,
,,,NODE__341,,,,48.939944,48.939944,4.390013,4.390013,0,NODE__341,,,,T. GAUTIER 2,T. GAUTIER 2,0,,,
,,,NODE__343,,,,48.9293556,48.9293556,4.21531425,4.21531425,0,NODE__343,,,,THIBIE 1,THIBIE 1,0,,,
,,,NODE__344,,,,48.9293167,48.9293167,4.21535278,4.21535278,0,NODE__344,,,,THIBIE 2,THIBIE 2,0,,,
,,,NODE__345,,,,48.957276,48.957276,4.364725,4.364725,0,NODE__345,,,,TISSIER 1,TISSIER 1,0,,,
,,,NODE__346,,,,48.957072,48.957072,4.364562,4.364562,0,NODE__346,,,,TISSIER 2,TISSIER 2,0,,,
,,,NODE__347,,,,48.957314,48.957314,4.364155,4.364155,0,NODE__347,,,,TISSIER 3,TISSIER 3,0,,,
,,,NODE__348,,,,48.957375,48.957375,4.363369,4.363369,0,NODE__348,,,,TISSIER 4,TISSIER 4,0,,,
,,,NODE__349,,,,48.9653758,48.9653758,4.38326783,4.38326783,0,NODE__349,,,,VALLEE ST-PIERRE,VALLEE ST-PIERRE,0,,,
,,,NODE__35,,,,48.971131,48.971131,4.350241,4.350241,0,NODE__35,,,,BERTOT 2,BERTOT 2,0,,,
,,,NODE__350,,,,48.7638194,48.7638194,4.14363333,4.14363333,0,NODE__350,,,,VASSIMONT 1,VASSIMONT 1,0,,,
,,,NODE__351,,,,48.7638944,48.7638944,4.1436,4.1436,0,NODE__351,,,,VASSIMONT 2,VASSIMONT 2,0,,,
,,,NODE__352,,,,48.8219825,48.8219825,4.23947332,4.23947332,0,NODE__352,,,,VATRY RUE MAIRIE 1,VATRY RUE MAIRIE 1,0,,,
,,,NODE__353,,,,48.8219472,48.8219472,4.23915833,4.23915833,0,NODE__353,,,,VATRY RUE MAIRIE 2,VATRY RUE MAIRIE 2,0,,,
,,,NODE__354,,,,48.8207278,48.8207278,4.24522778,4.24522778,0,NODE__354,,,,VATRY SOURCES 1,VATRY SOURCES 1,0,,,
,,,NODE__355,,,,48.8203344,48.8203344,4.24544618,4.24544618,0,NODE__355,,,,VATRY SOURCES 2,VATRY SOURCES 2,0,,,
,,,NODE__356,,,,48.942848,48.942848,4.36904,4.36904,0,NODE__356,,,,VERBEAU 1,VERBEAU 1,0,,,
,,,NODE__357,,,,48.942898,48.942898,4.369204,4.369204,0,NODE__357,,,,VERBEAU 2,VERBEAU 2,0,,,
,,,NODE__358,,,,48.9598306,48.9598306,4.26813611,4.26813611,0,NODE__358,,,,VILLERS-LE-CHATEAU MAIRIE 1,VILLERS-LE-CHATEAU MAIRIE 1,0,,,
,,,NODE__359,,,,48.9599498,48.9599498,4.26810328,4.26810328,0,NODE__359,,,,VILLERS-LE-CHATEAU MAIRIE 2,VILLERS-LE-CHATEAU MAIRIE 2,0,,,
,,,NODE__36,,,,49.0857111,49.0857111,4.34894444,4.34894444,0,NODE__36,,,,BOUY MAIRIE,BOUY MAIRIE,0,,,
,,,NODE__360,,,,48.944453,48.944453,4.39614,4.39614,0,NODE__360,,,,VOITRELLE 1,VOITRELLE 1,0,,,
,,,NODE__361,,,,48.944568,48.944568,4.396071,4.396071,0,NODE__361,,,,VOITRELLE 2,VOITRELLE 2,0,,,
,,,NODE__364,,,,49.0282399,49.0282399,4.24251235,4.24251235,0,NODE__364,,,,VRAUX ABRI,VRAUX ABRI,0,,,
,,,NODE__365,,,,48.939573,48.939573,4.384538,4.384538,0,NODE__365,,,,W. CHURCHILL 1,W. CHURCHILL 1,0,,,
,,,NODE__366,,,,48.939533,48.939533,4.384789,4.384789,0,NODE__366,,,,W. CHURCHILL 2,W. CHURCHILL 2,0,,,
,,,NODE__367,,,,48.9799873,48.9799873,4.34277505,4.34277505,0,NODE__367,,,,Z.I. ST-MARTIN 1,Z.I. ST-MARTIN 1,0,,,
,,,NODE__368,,,,48.979992,48.979992,4.342483,4.342483,0,NODE__368,,,,Z.I. ST-MARTIN 2,Z.I. ST-MARTIN 2,0,,,
,,,NODE__369,,,,48.978757,48.978757,4.357565,4.357565,0,NODE__369,,,,ZAC MONT-HERY,ZAC MONT-HERY,0,,,
,,,NODE__37,,,,49.0839667,49.0839667,4.35428056,4.35428056,0,NODE__37,,,,BOUY RD21 1,BOUY RD21 1,0,,,
,,,NODE__373,,,,49.07049,49.07049,4.40019,4.40019,0,NODE__373,,,,VADENAY,VADENAY,0,,,
,,,NODE__374,,,,49.05671,49.05671,4.3846,4.3846,0,NODE__374,,,,SAINT-HILAIRE-AU-TEMPLE,SAINT-HILAIRE-AU-TEMPLE,0,,,
,,,NODE__375,,,,49.04615,49.04615,4.3922,4.3922,0,NODE__375,,,,DAMPIERRE-AU-TEMPLE,DAMPIERRE-AU-TEMPLE,0,,,
,,,NODE__376,,,,49.15985,49.15985,4.33901,4.33901,0,NODE__376,,,,BACONNES,BACONNES,0,,,
,,,NODE__38,,,,49.0840583,49.0840583,4.354075,4.354075,0,NODE__38,,,,BOUY RD21 2,BOUY RD21 2,0,,,
,,,NODE__39,,,,48.953332,48.953332,4.342213,4.342213,0,NODE__39,,,,BRASSERIES 1,BRASSERIES 1,0,,,
,,,NODE__4,,,,48.97183,48.97183,4.362615,4.362615,0,NODE__4,,,,A. GODEAU 2,A. GODEAU 2,0,,,
,,,NODE__40,,,,48.953486,48.953486,4.342292,4.342292,0,NODE__40,,,,BRASSERIES 2,BRASSERIES 2,0,,,
,,,NODE__42,,,,48.8097472,48.8097472,4.24942222,4.24942222,0,NODE__42,,,,BUSSY ABRI 1,BUSSY ABRI 1,0,,,
,,,NODE__43,,,,48.8101526,48.8101526,4.25192166,4.25192166,0,NODE__43,,,,BUSSY ABRI 2,BUSSY ABRI 2,0,,,
,,,NODE__44,,,,48.804208,48.804208,4.26024189,4.26024189,0,NODE__44,,,,BUSSY ECOLE,BUSSY ECOLE,0,,,
,,,NODE__45,,,,48.957698,48.957698,4.38587,4.38587,0,NODE__45,,,,C. BAUDELAIRE 1,C. BAUDELAIRE 1,0,,,
,,,NODE__46,,,,48.957763,48.957763,4.385778,4.385778,0,NODE__46,,,,C. BAUDELAIRE 2,C. BAUDELAIRE 2,0,,,
,,,NODE__47,,,,48.964285,48.964285,4.356439,4.356439,0,NODE__47,,,,C. JACQUIERT 1,C. JACQUIERT 1,0,,,
,,,NODE__48,,,,48.96424,48.96424,4.356536,4.356536,0,NODE__48,,,,C. JACQUIERT 2,C. JACQUIERT 2,0,,,
,,,NODE__49,,,,48.941568,48.941568,4.382592,4.382592,0,NODE__49,,,,B. MARCET 1,B. MARCET 1,0,,,
,,,NODE__5,,,,48.98492,48.98492,4.344175,4.344175,0,NODE__5,,,,A. M. TERRIERE,A. M. TERRIERE,0,,,
,,,NODE__50,,,,48.9417188,48.9417188,4.3825003,4.3825003,0,NODE__50,,,,B. MARCET 2,B. MARCET 2,0,,,
,,,NODE__51,,,,48.948704,48.948704,4.382,4.382,0,NODE__51,,,,CARPION,CARPION,0,,,
,,,NODE__52,,,,48.955572,48.955572,4.357452,4.357452,0,NODE__52,,,,CATHEDRALE 1,CATHEDRALE 1,0,,,
,,,NODE__53,,,,48.955637,48.955637,4.357282,4.357282,0,NODE__53,,,,CATHEDRALE 2,CATHEDRALE 2,0,,,
,,,NODE__54,,,,48.967461,48.967461,4.368796,4.368796,0,NODE__54,,,,CDT DERRIEN 1,CDT DERRIEN 1,0,,,
,,,NODE__55,,,,48.967127,48.967127,4.368288,4.368288,0,NODE__55,,,,CDT DERRIEN 2,CDT DERRIEN 2,0,,,
,,,NODE__56,,,,48.971013,48.971013,4.371957,4.371957,0,NODE__56,,,,CENTRE HOSPITALIER 1,CENTRE HOSPITALIER 1,0,,,
,,,NODE__57,,,,48.970407,48.970407,4.371143,4.371143,0,NODE__57,,,,CENTRE HOSPITALIER 2,CENTRE HOSPITALIER 2,0,,,
,,,NODE__58,,,,48.9581769,48.9581769,4.31565469,4.31565469,0,NODE__58,,,,PORTES DE CHAMPAGNE 1 (ex-CENTRE OUEST),PORTES DE CHAMPAGNE 1 (ex-CENTRE OUEST),0,,,
,,,NODE__589,,,,48.95393,48.95393,4.36724,4.36724,0,NODE__589,,,,"68 Boulevard John Fitzgerald Kennedy, Chalons-en-Champagne","68 Boulevard John Fitzgerald Kennedy, Chalons-en-Champagne",0,,,
,,,NODE__59,,,,48.9585385,48.9585385,4.31542679,4.31542679,0,NODE__59,,,,PORTES DE CHAMPAGNE 2 (ex CENTRE OUEST),PORTES DE CHAMPAGNE 2 (ex CENTRE OUEST),0,,,
,,,NODE__6,,,,48.93924,48.93924,4.375976,4.375976,0,NODE__6,,,,A. MALRAUX 1,A. MALRAUX 1,0,,,
,,,NODE__60,,,,48.963006,48.963006,4.349181,4.349181,0,NODE__60,,,,CENTRE PATTON,CENTRE PATTON,0,,,
,,,NODE__61,,,,48.96813,48.96813,4.35047,4.35047,0,NODE__61,,,,CHALONS-EN-CHAMPAGNE AGGLO,CHALONS-EN-CHAMPAGNE AGGLO,0,,,
,,,NODE__610,,,,48.96236,48.96236,4.38073,4.38073,0,NODE__610,,,,40ÈME RA 1,40ÈME RA 1,0,,,
,,,NODE__611,,,,48.96221,48.96221,4.38028,4.38028,0,NODE__611,,,,40ÈME RA 2,40ÈME RA 2,0,,,
,,,NODE__612,,,,48.95177,48.95177,4.32712,4.32712,0,NODE__612,,,,AQUACITÉ 1,AQUACITÉ 1,0,,,
,,,NODE__613,,,,48.95166,48.95166,4.32739,4.32739,0,NODE__613,,,,AQUACITÉ 2,AQUACITÉ 2,0,,,
,,,NODE__614,,,,48.96493,48.96493,4.37627,4.37627,0,NODE__614,,,,CAMP D'ATTILA 1,CAMP D'ATTILA 1,0,,,
,,,NODE__615,,,,48.96481,48.96481,4.3763,4.3763,0,NODE__615,,,,CAMP D'ATTILA 2,CAMP D'ATTILA 2,0,,,
,,,NODE__616,,,,48.9423609,48.9423609,4.3741434,4.3741434,0,NODE__616,,,,FOSSE AUX BREBIS 1,FOSSE AUX BREBIS 1,0,,,
,,,NODE__617,,,,48.94253,48.94253,4.3741785,4.3741785,0,NODE__617,,,,FOSSE AUX BREBIS 2,FOSSE AUX BREBIS 2,0,,,
,,,NODE__618,,,,48.96726,48.96726,4.3622,4.3622,0,NODE__618,,,,COMPLEXE G. PHILIPE 1,COMPLEXE G. PHILIPE 1,0,,,
,,,NODE__619,,,,48.96717,48.96717,4.36187,4.36187,0,NODE__619,,,,COMPLEXE G. PHILIPE 2,COMPLEXE G. PHILIPE 2,0,,,
,,,NODE__62,,,,48.9712182,48.9712182,4.16753724,4.16753724,0,NODE__62,,,,CHAMPIGNEUL,CHAMPIGNEUL,0,,,
,,,NODE__620,,,,48.96934,48.96934,4.36809,4.36809,0,NODE__620,,,,HOPITAL BRIQUET 1,HOPITAL BRIQUET 1,0,,,
,,,NODE__621,,,,48.96947,48.96947,4.36822,4.36822,0,NODE__621,,,,HOPITAL BRIQUET 2,HOPITAL BRIQUET 2,0,,,
,,,NODE__622,,,,48.96006,48.96006,4.35663,4.35663,0,NODE__622,,,,IUT 1,IUT 1,0,,,
,,,NODE__623,,,,48.95991,48.95991,4.35649,4.35649,0,NODE__623,,,,IUT 2,IUT 2,0,,,
,,,NODE__624,,,,48.9776181,48.9776181,4.470841,4.470841,0,NODE__624,,,,L'EPINE,L'EPINE,0,,,
,,,NODE__625,,,,48.94657,48.94657,4.38349,4.38349,0,NODE__625,,,,MARÉCHAL JUIN 1,MARÉCHAL JUIN 1,0,,,
,,,NODE__626,,,,48.94668,48.94668,4.38333,4.38333,0,NODE__626,,,,MARÉCHAL JUIN 2,MARÉCHAL JUIN 2,0,,,
,,,NODE__627,,,,48.94975,48.94975,4.3385,4.3385,0,NODE__627,,,,ORADOUR 1,ORADOUR 1,0,,,
,,,NODE__628,,,,48.94965,48.94965,4.3385,4.3385,0,NODE__628,,,,ORADOUR 2,ORADOUR 2,0,,,
,,,NODE__629,,,,48.97167,48.97167,4.36858,4.36858,0,NODE__629,,,,PARKING HOPITAL 1,PARKING HOPITAL 1,0,,,
,,,NODE__63,,,,48.95165,48.95165,4.33108,4.33108,0,NODE__63,,,,CHAMPS AUX ECUS 2,CHAMPS AUX ECUS 2,0,,,
,,,NODE__630,,,,48.97165,48.97165,4.36867,4.36867,0,NODE__630,,,,PARKING HOPITAL 2,PARKING HOPITAL 2,0,,,
,,,NODE__633,,,,48.93827,48.93827,4.38754,4.38754,0,NODE__633,,,,PORTUGAL,PORTUGAL,0,,,
,,,NODE__634,,,,48.96668,48.96668,4.37639,4.37639,0,NODE__634,,,,QUARTIER FÉVRIER,QUARTIER FÉVRIER,0,,,
,,,NODE__635,,,,48.9450294,48.9450294,4.3422938,4.3422938,0,NODE__635,,,,WASHINGTON 1,WASHINGTON 1,0,,,
,,,NODE__636,,,,48.9455326,48.9455326,4.341568,4.341568,0,NODE__636,,,,WASHINGTON 2,WASHINGTON 2,0,,,
,,,NODE__637,,,,48.9494406,48.9494406,4.3675515,4.3675515,0,NODE__637,,,,COLLÈGE D'ABLANCOURT 2,COLLÈGE D'ABLANCOURT 2,0,,,
,,,NODE__638,,,,48.95268,48.95268,4.32267,4.32267,0,NODE__638,,,,ROUTE DE MONTMIRAIL 3,ROUTE DE MONTMIRAIL 3,0,,,
,,,NODE__639,,,,48.96795,48.96795,4.35028,4.35028,0,NODE__639,,,,CHÂLONS EN CHAMPAGNE AGGLO 2,CHÂLONS EN CHAMPAGNE AGGLO 2,0,,,
,,,NODE__64,,,,48.95132,48.95132,4.3315,4.3315,0,NODE__64,,,,CHAMPS AUX ECUS 1,CHAMPS AUX ECUS 1,0,,,
,,,NODE__640,,,,48.96294,48.96294,4.35526,4.35526,0,NODE__640,,,,CHAUSSÉE DU PORT 1,CHAUSSÉE DU PORT 1,0,,,
,,,NODE__641,,,,48.96277,48.96277,4.35532,4.35532,0,NODE__641,,,,CHAUSSÉE DU PORT 2,CHAUSSÉE DU PORT 2,0,,,
,,,NODE__642,,,,48.94365,48.94365,4.36827,4.36827,0,NODE__642,,,,87 Boulevard John Fitzgerald Kennedy,87 Boulevard John Fitzgerald Kennedy,0,,,
,,,NODE__67,,,,48.989689,48.989689,4.31613,4.31613,0,NODE__67,,,,CHANTERAINE,CHANTERAINE,0,,,
,,,NODE__68,,,,48.975626,48.975626,4.366111,4.366111,0,NODE__68,,,,CHARLIER 1,CHARLIER 1,0,,,
,,,NODE__69,,,,48.975743,48.975743,4.366212,4.366212,0,NODE__69,,,,CHARLIER 2,CHARLIER 2,0,,,
,,,NODE__693,,,,48.942712,48.942712,4.369179,4.369179,0,NODE__693,,,,69 BOULEVARD KENNEDY,69 BOULEVARD KENNEDY,0,,,
,,,NODE__694,,,,48.942712001,48.942712001,4.369179,4.369179,0,NODE__694,,,,69 boulevard Kennedy 51000 Chalons-en-Champagne,69 boulevard Kennedy 51000 Chalons-en-Champagne,0,,,
,,,NODE__7,,,,48.939778,48.939778,4.375786,4.375786,0,NODE__7,,,,A. MALRAUX 2,A. MALRAUX 2,0,,,
,,,NODE__70,,,,48.991122,48.991122,4.313455,4.313455,0,NODE__70,,,,CHATEAU D'EAU,CHATEAU D'EAU,0,,,
,,,NODE__71,,,,48.958225,48.958225,4.370451,4.370451,0,NODE__71,,,,CHATELET,CHATELET,0,,,
,,,NODE__72,,,,48.8844139,48.8844139,4.24277778,4.24277778,0,NODE__72,,,,CHENIERS 1,CHENIERS 1,0,,,
,,,NODE__73,,,,48.8844571,48.8844571,4.24264796,4.24264796,0,NODE__73,,,,CHENIERS 2,CHENIERS 2,0,,,
,,,NODE__738,,,,48.944894,48.944894,4.374007,4.374007,0,NODE__738,,,,2 boulevard John Fitzgerald Kennedy,2 boulevard John Fitzgerald Kennedy,0,,,
,,,NODE__75,,,,48.897729,48.897729,4.24641445,4.24641445,0,NODE__75,,,,CHENIERS NOTRE-DAME 1,CHENIERS NOTRE-DAME 1,0,,,
,,,NODE__76,,,,48.8977,48.8977,4.24600278,4.24600278,0,NODE__76,,,,CHENIERS NOTRE-DAME 2,CHENIERS NOTRE-DAME 2,0,,,
,,,NODE__77,,,,49.0182875,49.0182875,4.16355055,4.16355055,0,NODE__77,,,,CHERVILLE,CHERVILLE,0,,,
,,,NODE__78,,,,48.960481,48.960481,4.372488,4.372488,0,NODE__78,,,,CHEVALIER 1,CHEVALIER 1,0,,,
,,,NODE__79,,,,48.960504,48.960504,4.372359,4.372359,0,NODE__79,,,,CHEVALIER 2,CHEVALIER 2,0,,,
,,,NODE__80,,,,48.956039,48.956039,4.371567,4.371567,0,NODE__80,,,,CITE ADMINISTRATIVE 1,CITE ADMINISTRATIVE 1,0,,,
,,,NODE__81,,,,48.956781,48.956781,4.371675,4.371675,0,NODE__81,,,,CITE ADMINISTRATIVE 2,CITE ADMINISTRATIVE 2,0,,,
,,,NODE__82,,,,48.94924,48.94924,4.368337,4.368337,0,NODE__82,,,,COLLEGE ABLANCOURT,COLLEGE ABLANCOURT,0,,,
,,,NODE__83,,,,48.954562,48.954562,4.352652,4.352652,0,NODE__83,,,,COLLEGE DURUY 1,COLLEGE DURUY 1,0,,,
,,,NODE__84,,,,48.95499,48.95499,4.353974,4.353974,0,NODE__84,,,,COLLEGE DURUY 2,COLLEGE DURUY 2,0,,,
,,,NODE__85,,,,48.939922,48.939922,4.350051,4.350051,0,NODE__85,,,,COMPERTRIX MAIRIE,COMPERTRIX MAIRIE,0,,,
,,,NODE__86,,,,48.980888,48.980888,4.381038,4.381038,0,NODE__86,,,,COMPLEXE AGRICOLE,COMPLEXE AGRICOLE,0,,,
,,,NODE__87,,,,49.0445368,49.0445368,4.1805238,4.1805238,0,NODE__87,,,,CONDE CENTRE 1,CONDE CENTRE 1,0,,,
,,,NODE__88,,,,49.0445897,49.0445897,4.18015732,4.18015732,0,NODE__88,,,,CONDE CENTRE 2,CONDE CENTRE 2,0,,,
,,,NODE__885,,,,48.9313907,48.9313907,4.3833274,4.3833274,0,NODE__885,,,,J-H. FRAGONARD,J-H. FRAGONARD,0,,,
,,,NODE__886,,,,48.9330081,48.9330081,4.3819111,4.3819111,0,NODE__886,,,,GREVIERES,GREVIERES,0,,,
,,,NODE__90,,,,49.0428799,49.0428799,4.18468887,4.18468887,0,NODE__90,,,,CONDE LOTISSEMENT,CONDE LOTISSEMENT,0,,,
,,,NODE__93,,,,48.945752,48.945752,4.346143,4.346143,0,NODE__93,,,,COTE DE TROYES 1,COTE DE TROYES 1,0,,,
,,,NODE__94,,,,48.945764,48.945764,4.345915,4.345915,0,NODE__94,,,,COTE DE TROYES 2,COTE DE TROYES 2,0,,,
,,,NODE__95,,,,48.940705,48.940705,4.386789,4.386789,0,NODE__95,,,,CROIX DAMPIERRE 1,CROIX DAMPIERRE 1,0,,,
,,,NODE__96,,,,48.940981,48.940981,4.388113,4.388113,0,NODE__96,,,,CROIX DAMPIERRE 2,CROIX DAMPIERRE 2,0,,,
,,,NODE__97,,,,48.935783,48.935783,4.393684,4.393684,0,NODE__97,,,,CROIX J. ROBERT 1,CROIX J. ROBERT 1,0,,,
,,,NODE__98,,,,48.935555,48.935555,4.393682,4.393682,0,NODE__98,,,,CROIX J. ROBERT 2,CROIX J. ROBERT 2,0,,,
,,,NODE__99,,,,48.963363,48.963363,4.379126,4.379126,0,NODE__99,,,,CROIX MILSON 1,CROIX MILSON 1,0,,,
,,,ZONE__3,,,,,,,,0,ZONE__3,,,,,LOCATION_GROUPS.TXT STOP: DELETE AFTER FLX,101,,,
,,,ZONE__6,,,,,,,,0,ZONE__6,,,,,LOCATION_GROUPS.TXT STOP: DELETE AFTER FLX,101,,,
,,,ZONE__A,,,,,,,,0,ZONE__A,,,,,LOCATION_GROUPS.TXT STOP: DELETE AFTER FLX,101,,,
,,,ZONE__ABDE,,,,,,,,0,ZONE__ABDE,,,,,LOCATION_GROUPS.TXT STOP: DELETE AFTER FLX,101,,,
,,,ZONE__B,,,,,,,,0,ZONE__B,,,,,LOCATION_GROUPS.TXT STOP: DELETE AFTER FLX,101,,,
,,,ZONE__BOUY_MAIRIE,,,,,,,,0,ZONE__BOUY_MAIRIE,,,,,LOCATION_GROUPS.TXT STOP: DELETE AFTER FLX,101,,,
,,,ZONE__C,,,,,,,,0,ZONE__C,,,,,LOCATION_GROUPS.TXT STOP: DELETE AFTER FLX,101,,,
,,,ZONE__D,,,,,,,,0,ZONE__D,,,,,LOCATION_GROUPS.TXT STOP: DELETE AFTER FLX,101,,,
,,,ZONE__E,,,,,,,,0,ZONE__E,,,,,LOCATION_GROUPS.TXT STOP: DELETE AFTER FLX,101,,,
,,,ZONE__FG,,,,,,,,0,ZONE__FG,,,,,LOCATION_GROUPS.TXT STOP: DELETE AFTER FLX,101,,,
,,,ZONE__MOURMELON_LE_PETIT,,,,,,,,0,ZONE__MOURMELON_LE_PETIT,,,,,LOCATION_GROUPS.TXT STOP: DELETE AFTER FLX,101,,,
,,,ZONE__PARVIS_GARE,,,,,,,,0,ZONE__PARVIS_GARE,,,,,LOCATION_GROUPS.TXT STOP: DELETE AFTER FLX,101,,,
,,,ZONE__RUE_CAMILLE_COROT,,,,,,,,0,ZONE__RUE_CAMILLE_COROT,,,,,LOCATION_GROUPS.TXT STOP: DELETE AFTER FLX,101,,,
,,,ZONE__ST_HILAIRE_AU_TEMPLE,,,,,,,,0,ZONE__ST_HILAIRE_AU_TEMPLE,,,,,LOCATION_GROUPS.TXT STOP: DELETE AFTER FLX,101,,,
,,,ZONE__TISSIER,,,,,,,,0,ZONE__TISSIER,,,,,LOCATION_GROUPS.TXT STOP: DELETE AFTER FLX,101,,,
,,,ZONE__TPMR,,,,,,,,0,ZONE__TPMR,,,,,LOCATION_GROUPS.TXT STOP: DELETE AFTER FLX,101,,,